[{"id":"349149268","lat":41.9414195,"lon":9.2382644,"tags":{"name":"Cascade d'Undella","waterway":"waterfall"},"version":4,"timestamp":1569780595000,"changeset":0,"uid":"0","user":""},{"id":"353100676","lat":41.6805724,"lon":9.2156756,"tags":{"alt_name":"Piscia di Gallo","height":"60","name":"Piscia di Ghjaddu","official_name":"Cascade du Sapin","old_name":"Piscia di u Ghjàddicu","source":"survey 2020;mapillary","waterway":"waterfall","wikidata":"Q3389197","wikipedia":"fr:Piscia di Gallo"},"version":8,"timestamp":1630928825000,"changeset":0,"uid":"0","user":""},{"id":"363349799","lat":41.5281646,"lon":9.0645138,"tags":{"waterway":"waterfall"},"version":2,"timestamp":1547379084000,"changeset":0,"uid":"0","user":""},{"id":"405127096","lat":42.0642276,"lon":9.0505755,"tags":{"name":"Cascade du voile de la Mariée","waterway":"waterfall"},"version":3,"timestamp":1440930987000,"changeset":0,"uid":"0","user":""},{"id":"1038515383","lat":42.3619151,"lon":9.4911206,"tags":{"name":"Cascade de l'Ucelluline","tourism":"attraction","waterway":"waterfall"},"version":6,"timestamp":1543786205000,"changeset":0,"uid":"0","user":""},{"id":"1038957310","lat":41.8178651,"lon":9.2798387,"tags":{"waterway":"waterfall"},"version":3,"timestamp":1598950824000,"changeset":0,"uid":"0","user":""},{"id":"1240365603","lat":42.305189,"lon":8.8778406,"tags":{"name":"Cascade de Radule","waterway":"waterfall"},"version":7,"timestamp":1566224568000,"changeset":0,"uid":"0","user":""},{"id":"1249120001","lat":42.1674913,"lon":9.104684,"tags":{"name":"Cascade du Meli","waterway":"waterfall"},"version":2,"timestamp":1310162265000,"changeset":0,"uid":"0","user":""},{"id":"1250544864","lat":42.1964014,"lon":9.0631936,"tags":{"waterway":"waterfall"},"version":2,"timestamp":1596910306000,"changeset":0,"uid":"0","user":""},{"id":"1251812841","lat":42.1176959,"lon":9.1091685,"tags":{"name":"Cascade des Anglais","waterway":"waterfall","wikipedia":"fr:Vizzavona#Randonn.C3.A9es","description:en":"Waterfall named due to the popularity of the area in the early 20th century."},"version":7,"timestamp":1550520962000,"changeset":0,"uid":"0","user":""},{"id":"1253176465","lat":42.1840482,"lon":9.0757188,"tags":{"waterway":"waterfall"},"version":2,"timestamp":1630167051000,"changeset":0,"uid":"0","user":""},{"id":"1431012468","lat":41.8425658,"lon":9.2904794,"tags":{"name":"Vasque fumicelli","waterway":"waterfall"},"version":3,"timestamp":1585410182000,"changeset":0,"uid":"0","user":""},{"id":"2459877151","lat":41.8363794,"lon":9.2650737,"tags":{"waterway":"waterfall"},"version":4,"timestamp":1626938017000,"changeset":0,"uid":"0","user":""},{"id":"2911127335","lat":41.9872658,"lon":9.2501272,"tags":{"name":"Cascade de Buja","height":"100","tourism":"attraction","waterway":"waterfall","intermittent":"no"},"version":8,"timestamp":1571046645000,"changeset":0,"uid":"0","user":""},{"id":"3078484037","lat":41.8378625,"lon":9.2640326,"tags":{"name":"Cascades de Purcaraccia","waterway":"waterfall"},"version":2,"timestamp":1499109313000,"changeset":0,"uid":"0","user":""},{"id":"3581670661","lat":42.1208618,"lon":9.0958052,"tags":{"waterway":"waterfall"},"version":3,"timestamp":1630252654000,"changeset":0,"uid":"0","user":""},{"id":"3634032450","lat":41.7607982,"lon":9.3069409,"tags":{"name":"Cascade de Punta Pinzuta","waterway":"waterfall"},"version":3,"timestamp":1622466860000,"changeset":0,"uid":"0","user":""},{"id":"3662379783","lat":42.229207,"lon":9.0348366,"tags":{"source":"Bing","waterway":"waterfall"},"version":2,"timestamp":1568138028000,"changeset":0,"uid":"0","user":""},{"id":"4993461286","lat":42.3672859,"lon":8.9455238,"tags":{"waterway":"waterfall"},"version":2,"timestamp":1614785373000,"changeset":0,"uid":"0","user":""},{"id":"5126741833","lat":42.040151,"lon":9.1328761,"tags":{"waterway":"waterfall"},"version":2,"timestamp":1558784666000,"changeset":0,"uid":"0","user":""},{"id":"5312139238","lat":41.9612904,"lon":9.2502684,"tags":{"name":"Cascade de Macini","waterway":"waterfall"},"version":3,"timestamp":1602944720000,"changeset":0,"uid":"0","user":""},{"id":"5673089799","lat":42.361225,"lon":9.500115,"tags":{"waterway":"waterfall"},"version":2,"timestamp":1543786205000,"changeset":0,"uid":"0","user":""},{"id":"5836132588","lat":41.6313946,"lon":9.2291548,"tags":{"name":"Lataricciu","waterway":"waterfall"},"version":2,"timestamp":1613771900000,"changeset":0,"uid":"0","user":""},{"id":"5964802280","lat":42.2221839,"lon":9.0246785,"tags":{"waterway":"waterfall"},"version":2,"timestamp":1549005026000,"changeset":0,"uid":"0","user":""},{"id":"6018207003","lat":41.8294105,"lon":9.2634635,"tags":{"waterway":"waterfall"},"version":1,"timestamp":1540664553000,"changeset":0,"uid":"0","user":""},{"id":"6281756332","lat":41.9349326,"lon":8.9884821,"tags":{"name":"Piscia di Carnavalli","waterway":"waterfall"},"version":1,"timestamp":1550266445000,"changeset":0,"uid":"0","user":""},{"id":"6283444696","lat":42.5439749,"lon":8.9196298,"tags":{"name":"Cascade de Nunziata","waterway":"waterfall"},"version":1,"timestamp":1550351573000,"changeset":0,"uid":"0","user":""},{"id":"6451640486","lat":42.0220111,"lon":9.068627,"tags":{"name":"Cascade de l’Ortola / Piscia di l'Urtola","name:co":"Piscia di l'Urtola","name:fr":"Cascade de l’Ortola","waterway":"waterfall"},"version":3,"timestamp":1598816506000,"changeset":0,"uid":"0","user":""},{"id":"6504083998","lat":42.1820226,"lon":9.0773275,"tags":{"waterway":"waterfall"},"version":2,"timestamp":1596910306000,"changeset":0,"uid":"0","user":""},{"id":"6742258422","lat":42.8740525,"lon":9.418395,"tags":{"waterway":"waterfall"},"version":2,"timestamp":1597342297000,"changeset":0,"uid":"0","user":""},{"id":"6799646576","lat":41.8997729,"lon":9.1362382,"tags":{"name":"Cascade de Zicavo","height":"5","waterway":"waterfall"},"version":1,"timestamp":1568644426000,"changeset":0,"uid":"0","user":""},{"id":"6893767586","lat":42.3656961,"lon":9.3619612,"tags":{"name":"Cascade de la Struccia","waterway":"waterfall"},"version":2,"timestamp":1634683321000,"changeset":0,"uid":"0","user":""},{"id":"7785566054","lat":41.8511,"lon":9.0813821,"tags":{"waterway":"waterfall"},"version":1,"timestamp":1596573038000,"changeset":0,"uid":"0","user":""},{"id":"7785566270","lat":41.8537768,"lon":9.0784776,"tags":{"waterway":"waterfall"},"version":1,"timestamp":1596573038000,"changeset":0,"uid":"0","user":""},{"id":"7947201280","lat":41.9231509,"lon":9.27346,"tags":{"source":"BDOrtho IGN - available 2020 at the latest","waterway":"waterfall"},"version":1,"timestamp":1601188627000,"changeset":0,"uid":"0","user":""},{"id":"7947201281","lat":41.9231353,"lon":9.2730786,"tags":{"source":"BDOrtho IGN - available 2020 at the latest","waterway":"waterfall"},"version":1,"timestamp":1601188627000,"changeset":0,"uid":"0","user":""},{"id":"7947201282","lat":41.9222111,"lon":9.2711354,"tags":{"source":"BDOrtho IGN - available 2020 at the latest","waterway":"waterfall"},"version":1,"timestamp":1601188627000,"changeset":0,"uid":"0","user":""},{"id":"8165682252","lat":41.789345,"lon":8.7724632,"tags":{"waterway":"waterfall"},"version":4,"timestamp":1606375750000,"changeset":0,"uid":"0","user":""},{"id":"8911586217","lat":42.11768,"lon":9.1091877,"tags":{"waterway":"waterfall"},"version":1,"timestamp":1626012577000,"changeset":0,"uid":"0","user":""},{"id":"9017536817","lat":42.3817011,"lon":8.754289,"tags":{"name":"U Fangu","waterway":"waterfall"},"version":1,"timestamp":1629300647000,"changeset":0,"uid":"0","user":""},{"id":"9043786453","lat":42.1818195,"lon":9.0773422,"tags":{"waterway":"waterfall"},"version":1,"timestamp":1630167051000,"changeset":0,"uid":"0","user":""},{"id":"9043786454","lat":42.183402,"lon":9.0761995,"tags":{"waterway":"waterfall"},"version":1,"timestamp":1630167051000,"changeset":0,"uid":"0","user":""},{"id":"9045446564","lat":42.1212469,"lon":9.0950761,"tags":{"waterway":"waterfall"},"version":1,"timestamp":1630252654000,"changeset":0,"uid":"0","user":""},{"id":"9410394752","lat":41.985934,"lon":9.2973607,"tags":{"intermittent":"no","name":"Cascade de Pietrapola","waterway":"waterfall"},"version":1,"timestamp":1641912814000,"changeset":0,"uid":"0","user":""},{"id":"9413673860","lat":41.8863219,"lon":9.2753096,"tags":{"tourism":"yes","waterway":"waterfall"},"version":1,"timestamp":1642017842000,"changeset":0,"uid":"0","user":""}]